Date,Time,LAt,Lng,AltAmsl,AltRel,Baro,Roll,Pitch,Yaw,Bat
26.09.2021,03:31:48,54.8975138,35.0155992,155.57,0.2401862,98910.59,2.03,3.19,256.84,68.4134
26.09.2021,03:31:48,54.8975137,35.0155994,155.57,0.01695432,98913.04,2.03,3.18,256.84,68.46854
26.09.2021,03:31:48,54.8975136,35.0155996,155.56,0.06216583,98912.54,2.03,3.17,256.85,68.5233
26.09.2021,03:31:48,54.8975135,35.0155999,155.57,0.02260576,98912.99,2.03,3.16,256.85,68.57834
26.09.2021,03:31:49,54.8975134,35.0156001,155.61,0.322132,98909.7,2.03,3.16,256.85,68.63275
26.09.2021,03:31:49,54.8975133,35.0156004,155.65,0.07064299,98912.46,2.03,3.15,256.85,68.68809
26.09.2021,03:31:49,54.8975132,35.0156006,155.65,0.1299831,98911.8,2.02,3.14,256.85,68.74273
26.09.2021,03:31:49,54.8975131,35.0156007,155.66,-0.04521151,98913.73,2.02,3.14,256.85,68.79761
26.09.2021,03:31:49,54.8975131,35.0156009,155.68,0.1243317,98911.87,2.01,3.13,256.85,68.93237
26.09.2021,03:31:50,54.897513,35.0156012,155.69,-0.1017259,98914.34,2,3.1,256.89,69.855
26.09.2021,03:31:50,54.8975129,35.0156014,155.69,-0.5368867,98919.1,2.02,3.19,256.85,73.5383
26.09.2021,03:31:50,54.8975129,35.0156016,155.71,-4.877192,98966.73,2.16,3.91,256.99,80.85175
26.09.2021,03:31:50,54.8975128,35.015602,155.72,-1.621963,98931.05,3.67,4.1,258.21,87.81432
26.09.2021,03:31:50,54.897513,35.0156029,155.84,0.2938748,98910.01,7.57,-5.47,245.66,92.94732
26.09.2021,03:31:51,54.8975133,35.0156041,156.11,1.322437,98898.72,6.38,-8.86,246.56,98.45256
26.09.2021,03:31:51,54.8975138,35.0156051,156.51,1.415686,98897.72,1.83,-11.25,248.43,103.8201
26.09.2021,03:31:51,54.8975147,35.0156054,156.92,2.252099,98888.55,-1.32,-8.58,249.93,108.8316
26.09.2021,03:31:51,54.8975156,35.0156049,157.35,1.901709,98892.38,-1.46,-3.26,250.84,114.1514
26.09.2021,03:31:51,54.8975162,35.0156036,157.76,2.746599,98883.13,0.29,0.52,251.4,119.5266
26.09.2021,03:31:52,54.8975166,35.0156019,158.17,3.113943,98879.08,2.72,0.54,256,125.729
26.09.2021,03:31:52,54.8975171,35.0156004,158.6,4.00687,98869.31,4.3,0.49,254.35,131.2824
26.09.2021,03:31:52,54.8975177,35.0155993,159.03,4.458985,98864.36,2.43,-0.78,252.13,134.0685
26.09.2021,03:31:52,54.8975182,35.0155984,159.48,5.487547,98853.06,0.19,0.2,250.27,140.4025
26.09.2021,03:31:52,54.8975188,35.0155978,159.96,4.665263,98862.08,-1.25,0.5,249.85,149.2206
26.09.2021,03:31:53,54.8975193,35.0155972,160.4,4.984569,98858.58,-1.51,0.81,250.5,152.0797
26.09.2021,03:31:53,54.8975197,35.0155969,160.87,5.874671,98848.83,-2.26,0.42,251.64,157.7103
26.09.2021,03:31:53,54.8975201,35.0155967,161.35,6.420035,98842.84,-3.4,0.04,252.13,163.6798
26.09.2021,03:31:53,54.8975203,35.0155965,161.83,7.728343,98828.5,-2.85,1.25,252.02,169.4847
26.09.2021,03:31:53,54.8975204,35.0155964,162.29,7.700086,98828.82,-2.29,0.4,252.2,175.4595
26.09.2021,03:31:54,54.8975202,35.0155962,162.75,8.18611,98823.51,-1.91,-0.32,252.59,181.2831
26.09.2021,03:31:54,54.8975199,35.0155959,163.19,8.287835,98822.38,-1.39,-0.92,252.98,187.0922
26.09.2021,03:31:54,54.8975196,35.0155958,163.66,9.553758,98808.51,-1.53,-0.8,253.12,192.639
26.09.2021,03:31:54,54.8975194,35.0155959,164.12,10.18672,98801.59,-0.43,-2.23,252.97,197.8337
26.09.2021,03:31:54,54.897519,35.015596,164.6,10.58514,98797.21,1.71,-2.5,252.35,202.9083
26.09.2021,03:31:55,54.8975184,35.015596,165.04,10.98922,98792.77,2.61,-2.96,251.9,208.2027
26.09.2021,03:31:55,54.8975177,35.0155961,165.49,11.84824,98783.37,2.47,-2.65,250.54,213.7082
26.09.2021,03:31:55,54.8975171,35.0155962,165.93,12.43317,98776.98,2.02,-2.67,250.03,216.5235
26.09.2021,03:31:55,54.8975166,35.0155965,166.41,12.63379,98774.76,2.96,-2.46,249.08,222.158
26.09.2021,03:31:55,54.897516,35.0155969,166.85,12.88246,98772.04,4.15,-2.24,248.56,228.0622
26.09.2021,03:31:56,54.8975154,35.0155972,167.32,13.43912,98765.96,4.97,-2.83,248.5,234.1481
26.09.2021,03:31:56,54.8975149,35.0155973,167.74,14.08621,98758.87,6.04,-0.39,249.44,240.2502
26.09.2021,03:31:56,54.8975145,35.0155976,168.18,14.82938,98750.73,5.77,-0.97,250.83,246.0901
26.09.2021,03:31:56,54.8975144,35.015598,168.63,14.4366,98755.01,4.91,-1.64,252.22,251.8743
26.09.2021,03:31:56,54.8975146,35.0155984,169.1,15.54146,98742.92,2.51,-3.9,252.82,257.6371
26.09.2021,03:31:57,54.8975149,35.0155989,169.58,15.43125,98744.13,0.81,-4.55,252.89,263.3527
26.09.2021,03:31:57,54.8975154,35.0155993,170.1,17.22841,98724.44,0.44,-4.15,252.37,269.166
26.09.2021,03:31:57,54.8975157,35.0155993,170.56,16.68022,98730.45,1,-2.28,251.51,274.9612
26.09.2021,03:31:57,54.8975158,35.015599,171.03,16.80455,98729.09,2.45,-1.3,250.55,280.6389
26.09.2021,03:31:57,54.8975158,35.0155986,171.49,17.4799,98721.69,2.23,-0.8,250.12,286.1377
26.09.2021,03:31:58,54.8975158,35.0155981,171.96,17.77095,98718.52,1.9,-2.14,249.59,288.8383
26.09.2021,03:31:58,54.8975158,35.0155978,172.42,18.63845,98709.02,2.38,-2.87,249.5,294.4738
26.09.2021,03:31:58,54.8975159,35.0155976,172.9,19.52007,98699.38,2.68,-3.3,249.44,300.3549
26.09.2021,03:31:58,54.8975161,35.0155973,173.36,19.39291,98700.77,3.5,-2.73,249.36,305.8443
26.09.2021,03:31:58,54.8975161,35.0155971,173.83,20.4017,98689.72,3.99,-1.85,249.2,311.3883
26.09.2021,03:31:59,54.8975161,35.0155969,174.26,19.94958,98694.66,3.19,-1.09,249.44,317.0091
26.09.2021,03:31:59,54.8975161,35.0155967,174.71,22.11973,98670.89,2.9,-0.91,249.76,322.592
26.09.2021,03:31:59,54.8975162,35.0155965,175.16,20.69557,98686.5,3.17,-0.34,250.04,328.1529
26.09.2021,03:31:59,54.8975165,35.0155965,175.6,22.16777,98670.39,3.24,-0.4,249.95,333.7029
26.09.2021,03:31:59,54.8975168,35.0155964,176.02,22.22146,98669.8,2.15,-0.65,249.48,339.1633
26.09.2021,03:32:00,54.8975173,35.0155966,176.47,23.6541,98654.1,2.17,-3.57,249.09,344.7905
26.09.2021,03:32:00,54.8975175,35.0155969,176.94,23.63149,98654.37,0.63,-4.55,248.89,350.8213
26.09.2021,03:32:00,54.8975176,35.0155971,177.37,24.31532,98646.88,-0.79,-3.52,248.59,356.6511
26.09.2021,03:32:00,54.8975178,35.015597,177.81,24.41704,98645.76,-0.37,-1.98,247.83,362.4315
26.09.2021,03:32:00,54.8975177,35.0155966,178.25,25.56711,98633.16,2.64,-1.41,247.59,367.9948
26.09.2021,03:32:01,54.8975175,35.0155962,178.69,26.20572,98626.18,2.99,-1.62,247.7,373.6987
26.09.2021,03:32:01,54.8975171,35.0155958,179.13,26.69457,98620.84,3.49,-1.27,248.06,376.5857
26.09.2021,03:32:01,54.8975169,35.0155954,179.59,26.69175,98620.87,3.29,-0.92,248.42,382.4782
26.09.2021,03:32:01,54.8975168,35.0155954,180.06,27.75139,98609.29,2.52,-1.21,248.61,388.6905
26.09.2021,03:32:01,54.8975166,35.0155954,180.5,27.63554,98610.54,2.7,-0.68,248.41,394.5638
26.09.2021,03:32:02,54.8975165,35.0155952,180.94,27.93506,98607.26,2.89,-0.43,247.71,400.2299
26.09.2021,03:32:02,54.8975164,35.0155952,181.38,29.78026,98587.09,3.19,-1.73,246.94,405.6433
26.09.2021,03:32:02,54.8975163,35.0155954,181.84,30.08826,98583.73,3.77,-2.09,246.52,411.202
26.09.2021,03:32:02,54.8975162,35.0155957,182.29,29.69266,98588.03,3.98,-1.92,246.34,416.7087
26.09.2021,03:32:02,54.8975162,35.0155959,182.77,30.75513,98576.43,4,-1.7,246.26,422.2755
26.09.2021,03:32:03,54.897516,35.015596,183.2,31.08857,98572.79,3.87,-0.88,246.46,428.006
26.09.2021,03:32:03,54.8975158,35.0155959,183.62,31.64241,98566.73,3.72,0.07,246.68,433.7634
26.09.2021,03:32:03,54.8975157,35.0155959,184.09,31.75544,98565.48,3.74,-0.06,246.81,439.3466
26.09.2021,03:32:03,54.8975156,35.0155958,184.51,32.76139,98554.48,3.79,-0.23,247.23,444.7773
26.09.2021,03:32:03,54.8975157,35.0155958,184.96,32.40818,98558.34,4.01,-0.69,247.64,447.6495
26.09.2021,03:32:04,54.8975158,35.0155959,185.39,33.55542,98545.81,3.78,-1.26,247.96,453.4294
26.09.2021,03:32:04,54.8975159,35.0155959,185.78,33.95102,98541.47,3.16,-1.2,248.17,459.1327
26.09.2021,03:32:04,54.8975161,35.0155957,186.21,33.51303,98546.28,2.45,-1.22,248.23,464.7038
26.09.2021,03:32:04,54.8975163,35.0155957,186.61,33.82104,98542.89,2.22,-1.53,248.19,470.294
26.09.2021,03:32:04,54.8975167,35.0155959,187.07,35.54755,98524.03,1.64,-1.87,247.88,475.9314
26.09.2021,03:32:05,54.897517,35.0155961,187.51,35.56451,98523.84,1.66,-2.42,247.62,481.3995
26.09.2021,03:32:05,54.897517,35.0155962,187.93,35.8273,98520.98,2.19,-2.35,247.55,486.9915
26.09.2021,03:32:05,54.8975172,35.0155963,188.37,36.11269,98517.84,2.79,-2.25,247.1,492.3103
26.09.2021,03:32:05,54.8975173,35.0155965,188.81,37.04801,98507.63,2.84,-2.55,246.76,497.4185
26.09.2021,03:32:05,54.8975173,35.0155967,189.26,36.84738,98509.81,2.86,-3.08,246.28,502.6922
26.09.2021,03:32:06,54.8975173,35.0155969,189.71,37.21755,98505.77,2.58,-2.99,246.08,508.017
26.09.2021,03:32:06,54.8975173,35.0155969,190.14,38.4863,98491.91,2.44,-2.95,245.9,513.4334
26.09.2021,03:32:06,54.8975173,35.0155969,190.58,38.5852,98490.82,2.08,-2.69,245.61,516.149
26.09.2021,03:32:06,54.8975173,35.0155968,191.01,38.35067,98493.4,2.33,-2.15,245.3,521.5416
26.09.2021,03:32:06,54.8975172,35.0155967,191.49,39.44987,98481.39,3.28,-2.15,245.88,527.0731
26.09.2021,03:32:07,54.897517,35.0155963,191.93,39.51769,98480.65,3.95,-1.87,246.93,532.8082
26.09.2021,03:32:07,54.8975169,35.015596,192.37,41.56916,98458.21,3.29,-1.8,248.14,538.7728
26.09.2021,03:32:07,54.897517,35.0155957,192.82,42.41122,98449.04,2.6,-0.89,249.27,544.7889
26.09.2021,03:32:07,54.8975171,35.0155956,193.26,43.02441,98442.32,1.41,-0.59,249.56,550.5296
26.09.2021,03:32:07,54.8975173,35.0155955,193.72,43.11483,98441.35,1.09,-1.18,248.99,555.8169
26.09.2021,03:32:08,54.8975175,35.0155955,194.18,42.80117,98444.76,1.9,-2.28,248.05,561.096
26.09.2021,03:32:08,54.8975177,35.0155955,194.64,42.93681,98443.27,2.15,-2.28,247.05,566.4011
26.09.2021,03:32:08,54.8975177,35.0155955,195.08,43.6941,98435.02,2.2,-2.74,246.62,571.8203
26.09.2021,03:32:08,54.8975176,35.0155956,195.52,44.61811,98424.91,2.18,-2.7,246.29,577.3069
26.09.2021,03:32:08,54.8975174,35.0155957,195.99,45.0787,98419.9,2.35,-2.9,246.39,582.9967
26.09.2021,03:32:09,54.8975172,35.0155957,196.43,44.64354,98424.63,2.4,-2.57,246.73,585.8213
26.09.2021,03:32:09,54.897517,35.0155959,196.93,45.77383,98412.3,2.38,-1.8,247.31,591.3299
26.09.2021,03:32:09,54.8975168,35.0155961,197.38,45.5393,98414.86,2.46,-1.79,248.01,596.7302
26.09.2021,03:32:09,54.8975167,35.0155962,197.87,46.7374,98401.78,2.83,-1.75,248.64,602.1801
26.09.2021,03:32:09,54.8975165,35.0155962,198.35,47.28842,98395.75,2.51,-1.34,248.87,607.5347
26.09.2021,03:32:10,54.8975164,35.0155963,198.84,47.58794,98392.48,3.17,-0.68,248.84,612.6638
26.09.2021,03:32:10,54.8975162,35.0155965,199.3,48.02028,98387.75,3.75,-1.37,248.58,618.0353
26.09.2021,03:32:10,54.8975161,35.0155966,199.76,49.00928,98376.97,3.44,-1.89,248.44,623.4692
26.09.2021,03:32:10,54.8975162,35.0155967,200.25,49.17882,98375.11,3.12,-2.01,248.32,629.0397
26.09.2021,03:32:10,54.8975163,35.015597,200.71,49.98133,98366.36,2.64,-1.92,248.12,634.7055
26.09.2021,03:32:11,54.8975163,35.0155972,201.15,49.3738,98372.97,2.53,-2,248,640.3423
26.09.2021,03:32:11,54.8975163,35.0155974,201.63,51.44222,98350.41,2.54,-2.15,247.76,645.933
26.09.2021,03:32:11,54.8975164,35.0155974,202.08,51.31789,98351.77,2.21,-2.55,247.66,651.7539
26.09.2021,03:32:11,54.8975165,35.0155974,202.55,52.0215,98344.08,2.56,-2.26,247.62,657.2698
26.09.2021,03:32:11,54.8975165,35.0155973,203.01,51.45918,98350.23,2.82,-2.35,247.56,660.0431
26.09.2021,03:32:12,54.8975165,35.0155971,203.46,53.23656,98330.81,2.91,-1.63,247.46,665.6441
26.09.2021,03:32:12,54.8975166,35.0155969,203.91,52.90312,98334.45,2.52,-1.78,247.31,671.1614
26.09.2021,03:32:12,54.8975168,35.0155967,204.38,52.7138,98336.53,2.26,-2.11,247.07,676.5291
26.09.2021,03:32:12,54.8975169,35.0155964,204.85,52.99072,98333.52,2.08,-1.84,246.89,681.9866
26.09.2021,03:32:12,54.8975171,35.0155963,205.33,54.42336,98317.88,2.05,-1.53,246.78,687.366
26.09.2021,03:32:13,54.8975173,35.015596,205.78,54.83026,98313.45,2.02,-1.51,246.86,692.8437
26.09.2021,03:32:13,54.8975175,35.0155955,206.22,55.58473,98305.2,1.78,-1.12,247.11,698.2883
26.09.2021,03:32:13,54.8975176,35.015595,206.64,56.10184,98299.54,1.64,-1.25,247.2,703.6448
26.09.2021,03:32:13,54.8975177,35.0155945,207.08,56.35897,98296.76,1.41,-1.46,247.1,709.1306
26.09.2021,03:32:13,54.8975177,35.015594,207.48,57.35646,98285.87,1.38,-1.72,246.81,714.2628
26.09.2021,03:32:14,54.8975178,35.0155936,207.92,57.25755,98286.95,1.46,-1.75,246.72,719.1774
26.09.2021,03:32:14,54.8975177,35.0155934,208.37,58.04028,98278.4,1.9,-1.76,246.77,723.8318
26.09.2021,03:32:14,54.8975176,35.0155931,208.81,58.59695,98272.32,2.4,-1.71,247,728.1732
26.09.2021,03:32:14,54.8975176,35.0155929,209.21,58.64498,98271.8,2.45,-1.5,247.15,730.3243
26.09.2021,03:32:14,54.8975177,35.0155927,209.56,59.15644,98266.23,2.29,-1.37,247.26,734.3165
26.09.2021,03:32:15,54.8975177,35.0155924,209.88,58.80605,98270.05,2.6,-1.69,247.51,738.3076
26.09.2021,03:32:15,54.8975177,35.0155921,210.16,59.2073,98265.68,2.5,-1.42,247.81,742.2275
26.09.2021,03:32:15,54.8975176,35.0155919,210.39,59.37685,98263.82,1.55,-1.2,248.01,746.2943
26.09.2021,03:32:15,54.8975176,35.0155919,210.61,59.52096,98262.26,0.28,0.07,248.11,750.4016
26.09.2021,03:32:15,54.8975177,35.0155923,210.8,60.64559,98249.98,-0.88,1.8,248.13,754.5602
26.09.2021,03:32:16,54.8975176,35.015593,210.95,59.7781,98259.45,-1.89,2.61,248.1,758.7163
26.09.2021,03:32:16,54.8975174,35.0155937,211.04,60.39693,98252.69,-2.28,3.2,248.11,762.8645
26.09.2021,03:32:16,54.8975172,35.0155948,211.08,60.60038,98250.47,-2.34,2.94,248.32,767.1743
26.09.2021,03:32:16,54.8975168,35.0155967,211.16,59.65094,98260.84,-2.44,2.77,248.56,771.6307
26.09.2021,03:32:16,54.897516,35.0155992,211.23,60.38845,98252.8,-3.24,2.07,248.99,776.1866
26.09.2021,03:32:17,54.8975152,35.0156021,211.26,59.90525,98258.05,-2.58,2.55,249.35,780.7133
26.09.2021,03:32:17,54.8975142,35.0156054,211.27,60.26412,98254.16,-2.33,2.95,249.15,783.02
26.09.2021,03:32:17,54.8975131,35.015609,211.27,60.41106,98252.53,-2.54,2.73,246.03,787.6701
26.09.2021,03:32:17,54.8975118,35.0156131,211.25,60.19065,98254.94,-2.1,2.85,238.83,792.5722
26.09.2021,03:32:17,54.8975104,35.0156176,211.26,60.9649,98246.5,-3.31,1.55,228.98,797.595
26.09.2021,03:32:18,54.8975089,35.0156225,211.26,60.9423,98246.75,-3.9,1.14,217.55,802.4238
26.09.2021,03:32:18,54.8975074,35.0156278,211.28,61.23052,98243.61,-4.31,0.65,205.24,807.4915
26.09.2021,03:32:18,54.8975056,35.0156335,211.31,60.98185,98246.31,-4.82,0.1,191.86,812.3646
26.09.2021,03:32:18,54.8975036,35.0156396,211.31,60.54952,98251.03,-5.91,-2.15,177.82,817.2315
26.09.2021,03:32:18,54.8975015,35.0156462,211.32,60.5806,98250.7,-5.44,-3.96,163.12,822.1785
26.09.2021,03:32:19,54.897499,35.0156535,211.33,60.86035,98247.64,-4.64,-5.36,148.07,827.1309
26.09.2021,03:32:19,54.8974963,35.0156616,211.32,60.69646,98249.44,-3.84,-6.08,132.93,832.2446
26.09.2021,03:32:19,54.8974933,35.0156707,211.34,60.24434,98254.38,-3.11,-6.79,118.81,837.3307
26.09.2021,03:32:19,54.89749,35.0156807,211.31,60.13696,98255.52,-2.49,-7.27,112.64,842.4
26.09.2021,03:32:19,54.8974864,35.0156919,211.27,59.74701,98259.79,-1.14,-7.21,103.27,847.4886
26.09.2021,03:32:20,54.8974828,35.0157042,211.24,60.55235,98251.01,-0.05,-6.43,97.96,850.0704
26.09.2021,03:32:20,54.8974794,35.0157172,211.2,60.41388,98252.52,0.35,-5.16,96.07,855.0624
26.09.2021,03:32:20,54.897476,35.0157308,211.17,60.63147,98250.13,0.21,-4.23,96.6,860.0388
26.09.2021,03:32:20,54.8974726,35.0157453,211.18,59.79222,98259.3,-0.01,-4.32,98.91,865.054
26.09.2021,03:32:20,54.8974692,35.0157601,211.16,59.93069,98257.77,-0.23,-4.95,102.42,870.2713
26.09.2021,03:32:21,54.897466,35.015775,211.11,60.26694,98254.1,-0.33,-4.95,106.36,875.4134
26.09.2021,03:32:21,54.8974626,35.0157908,211.13,60.47887,98251.8,-0.41,-4.04,109.85,880.472
26.09.2021,03:32:21,54.8974591,35.015807,211.11,60.45062,98252.1,0,-3.43,112.66,885.6126
26.09.2021,03:32:21,54.8974554,35.015824,211.12,59.80353,98259.16,0.51,-2.71,114.5,890.8574
26.09.2021,03:32:21,54.8974516,35.0158414,211.14,60.12001,98255.71,-0.92,-2.84,114.67,896.1293
26.09.2021,03:32:22,54.8974477,35.0158587,211.09,60.25282,98254.26,-1.65,-3.27,113.74,901.1312
26.09.2021,03:32:22,54.8974437,35.0158761,211.1,60.57212,98250.77,-1.7,-3.58,113,906.1864
26.09.2021,03:32:22,54.8974398,35.0158943,211.16,59.80918,98259.1,-1.42,-3.93,111.49,911.2231
26.09.2021,03:32:22,54.8974359,35.0159127,211.17,60.9762,98246.38,-0.84,-3.87,110.31,916.1456
26.09.2021,03:32:22,54.8974319,35.0159314,211.18,60.92251,98246.97,-0.73,-4.2,109.15,921.202
26.09.2021,03:32:23,54.8974279,35.0159507,211.22,60.97055,98246.43,-0.98,-3.98,108.13,923.6667
26.09.2021,03:32:23,54.8974238,35.0159702,211.22,59.37967,98263.78,-1.41,-4.06,107.37,928.4962
26.09.2021,03:32:23,54.8974199,35.0159902,211.21,60.41954,98252.45,-1.61,-3.94,106.81,933.1942
26.09.2021,03:32:23,54.897416,35.0160106,211.21,59.73571,98259.92,-0.59,-3.1,106.76,938.0892
26.09.2021,03:32:23,54.8974121,35.0160313,211.23,60.51561,98251.41,0.09,-3.02,107.11,943.0551
26.09.2021,03:32:24,54.8974081,35.016052,211.2,59.62551,98261.11,0.76,-3.19,107.42,948.0139
26.09.2021,03:32:24,54.8974042,35.0160728,211.19,59.63681,98261,0.81,-3.46,107.46,952.8751
26.09.2021,03:32:24,54.8974001,35.0160937,211.16,60.13414,98255.58,0.47,-3.5,107.52,957.6636
26.09.2021,03:32:24,54.8973962,35.016115,211.2,60.26412,98254.14,0.59,-3.42,107.7,962.5673
26.09.2021,03:32:24,54.8973923,35.0161363,211.23,59.99002,98257.13,1.44,-3.24,108.08,967.2834
26.09.2021,03:32:25,54.8973883,35.0161575,211.24,59.97025,98257.36,2.11,-3.88,108.22,971.8892
26.09.2021,03:32:25,54.8973841,35.016179,211.27,60.10588,98255.88,1.86,-5.17,108.32,976.707
26.09.2021,03:32:25,54.89738,35.0162009,211.31,60.82927,98247.97,0.5,-3.8,107.99,981.2637
26.09.2021,03:32:25,54.8973757,35.0162229,211.31,59.56899,98261.73,1.05,-3.23,108,985.5683
26.09.2021,03:32:25,54.8973713,35.0162451,211.32,59.5153,98262.33,2.1,-3.91,108.52,989.9122
26.09.2021,03:32:26,54.8973669,35.0162675,211.32,61.08923,98245.14,1.35,-3.39,108.52,992.1422
26.09.2021,03:32:26,54.8973624,35.0162902,211.33,60.73884,98248.97,1,-2.92,108.31,996.5431
26.09.2021,03:32:26,54.8973578,35.0163129,211.36,60.37715,98252.92,0.98,-2.89,108,1000.928
26.09.2021,03:32:26,54.8973531,35.0163356,211.38,58.80322,98270.09,0.56,-3.72,107.47,1005.247
26.09.2021,03:32:26,54.8973483,35.0163583,211.4,60.49583,98251.63,0.09,-5.02,106.91,1009.665
26.09.2021,03:32:27,54.8973434,35.0163812,211.41,59.94481,98257.64,-0.16,-5.31,106.88,1014.446
26.09.2021,03:32:27,54.8973387,35.0164043,211.42,59.77527,98259.48,0.84,-5.62,107.4,1019.067
26.09.2021,03:32:27,54.8973339,35.0164276,211.42,60.45345,98252.08,1.07,-5.18,107.81,1023.639
26.09.2021,03:32:27,54.897329,35.016451,211.44,60.55799,98250.95,1.12,-4.84,107.83,1027.96
26.09.2021,03:32:27,54.8973241,35.0164747,211.44,59.75267,98259.72,0.4,-4.67,107.72,1032.396
26.09.2021,03:32:28,54.897319,35.0164987,211.42,60.20761,98254.77,0.7,-3.73,107.53,1036.789
26.09.2021,03:32:28,54.897314,35.0165227,211.43,60.07197,98256.23,0.94,-3.1,107.44,1041.262
26.09.2021,03:32:28,54.8973088,35.0165467,211.43,60.8773,98247.47,0.43,-2.87,107.25,1045.79
26.09.2021,03:32:28,54.8973037,35.016571,211.43,59.60855,98261.3,0.43,-3.5,106.97,1048.165
26.09.2021,03:32:28,54.8972985,35.0165954,211.41,60.30933,98253.64,-0.51,-3.66,106.87,1055.161
26.09.2021,03:32:29,54.8972932,35.0166196,211.4,59.5153,98262.31,-0.35,-3.2,107.13,1057.533
26.09.2021,03:32:29,54.897288,35.0166437,211.39,59.61703,98261.2,0.51,-2.96,107.35,1062.074
26.09.2021,03:32:29,54.8972828,35.0166679,211.39,59.23838,98265.33,0.52,-3.36,107.64,1066.375
26.09.2021,03:32:29,54.8972776,35.0166923,211.41,59.32033,98264.44,0.74,-3.67,108.18,1070.73
26.09.2021,03:32:29,54.8972724,35.0167167,211.43,59.44749,98263.05,0.66,-3.66,109.06,1075.075
26.09.2021,03:32:30,54.8972672,35.0167409,211.44,59.24121,98265.3,0,-4,109.66,1079.504
26.09.2021,03:32:30,54.897262,35.0167651,211.47,59.92786,98257.8,-0.57,-3.86,109.86,1084.087
26.09.2021,03:32:30,54.8972566,35.0167897,211.51,60.25564,98254.23,-0.43,-4.02,110.22,1088.812
26.09.2021,03:32:30,54.8972512,35.0168144,211.56,60.62299,98250.22,-0.92,-4.65,110.35,1093.575
26.09.2021,03:32:30,54.8972458,35.0168391,211.6,60.54669,98251.08,-1.03,-4.45,110.25,1098.36
26.09.2021,03:32:31,54.8972404,35.0168637,211.63,60.54669,98251.06,-1.04,-4.29,110.13,1100.672
26.09.2021,03:32:31,54.897235,35.0168887,211.67,59.9985,98257.05,-1.43,-4.16,109.84,1105.119
26.09.2021,03:32:31,54.8972296,35.0169138,211.67,59.22708,98265.47,-0.44,-3.24,109.55,1109.488
26.09.2021,03:32:31,54.8972242,35.016939,211.69,60.13414,98255.58,0.15,-3.31,109.26,1113.926
26.09.2021,03:32:31,54.8972188,35.0169641,211.7,60.57495,98250.77,0.08,-2.82,108.82,1118.704
26.09.2021,03:32:32,54.8972134,35.0169892,211.72,59.24686,98265.23,-0.02,-3.22,108.16,1123.198
26.09.2021,03:32:32,54.8972079,35.0170144,211.68,60.47605,98251.84,0.13,-3.28,107.59,1127.819
26.09.2021,03:32:32,54.8972027,35.0170398,211.69,59.71593,98260.14,0.34,-2.43,107.26,1132.312
26.09.2021,03:32:32,54.8971975,35.0170653,211.68,60.09175,98256.02,1.11,-2.4,107.53,1136.519
26.09.2021,03:32:32,54.8971921,35.0170908,211.72,59.66224,98260.7,1.02,-3,108.04,1140.812
26.09.2021,03:32:33,54.8971865,35.0171163,211.71,60.40541,98252.61,0.21,-3.23,108.78,1145.334
26.09.2021,03:32:33,54.897181,35.0171417,211.72,61.31246,98242.7,0.4,-3.72,109.62,1149.893
26.09.2021,03:32:33,54.8971756,35.0171672,211.73,60.54387,98251.11,0.25,-3.69,110.18,1152.249
26.09.2021,03:32:33,54.89717,35.0171927,211.73,61.35485,98242.25,0.23,-3.29,111.08,1156.786
26.09.2021,03:32:33,54.8971643,35.0172185,211.74,61.05532,98245.5,-0.75,-3.36,111.27,1161.075
26.09.2021,03:32:34,54.8971585,35.0172445,211.76,59.94199,98257.66,-1.38,-2.92,110.69,1165.439
26.09.2021,03:32:34,54.8971528,35.0172704,211.76,60.23586,98254.44,-1.12,-2.42,109.87,1169.884
26.09.2021,03:32:34,54.8971472,35.0172963,211.76,60.44779,98252.13,-0.85,-2.66,108.94,1174.338
26.09.2021,03:32:34,54.8971415,35.0173224,211.74,60.43932,98252.22,-0.83,-3.29,108.19,1179.024
26.09.2021,03:32:34,54.8971359,35.0173485,211.76,61.24464,98243.45,-0.33,-2.93,108.22,1183.766
26.09.2021,03:32:35,54.8971303,35.0173743,211.76,61.47918,98240.89,-0.12,-2.66,108.99,1188.407
26.09.2021,03:32:35,54.8971247,35.0174003,211.77,60.12566,98255.67,-0.13,-4.26,109.93,1193.066
26.09.2021,03:32:35,54.897119,35.0174263,211.77,60.15392,98255.34,-0.89,-3.36,110.53,1197.775
26.09.2021,03:32:35,54.8971133,35.0174524,211.78,60.34889,98253.22,-1.17,-3.02,110.73,1202.541
26.09.2021,03:32:35,54.8971075,35.0174786,211.77,60.4817,98251.77,-0.94,-2.88,110.54,1207.32
26.09.2021,03:32:36,54.8971018,35.0175049,211.78,60.8886,98247.34,-1,-2.87,110.04,1212.19
26.09.2021,03:32:36,54.897096,35.0175312,211.79,59.56052,98261.83,-0.93,-2.4,109.54,1217.068
26.09.2021,03:32:36,54.8970903,35.0175576,211.8,59.93069,98257.78,-1.22,-2.25,109.36,1219.393
26.09.2021,03:32:36,54.8970846,35.0175841,211.81,59.97872,98257.27,-0.92,-2.39,109.04,1224.064
26.09.2021,03:32:36,54.8970789,35.0176106,211.79,61.15422,98244.42,-0.87,-2.7,108.98,1228.996
26.09.2021,03:32:37,54.8970732,35.0176371,211.79,60.16805,98255.19,-0.56,-3.14,109.1,1233.859
26.09.2021,03:32:37,54.8970675,35.0176637,211.81,60.52974,98251.23,-0.01,-3.36,109.61,1238.561
26.09.2021,03:32:37,54.8970619,35.0176903,211.82,60.32346,98253.5,0.37,-3.1,110.2,1243.537
26.09.2021,03:32:37,54.8970562,35.0177169,211.79,60.16522,98255.23,0.11,-2.77,110.77,1248.511
26.09.2021,03:32:37,54.8970504,35.0177436,211.78,60.36867,98253.02,-0.11,-2.52,111.15,1253.448
26.09.2021,03:32:38,54.8970446,35.0177702,211.77,60.61734,98250.3,-0.44,-3.48,111.11,1258.456
26.09.2021,03:32:38,54.8970387,35.0177968,211.76,60.02676,98256.73,-0.44,-2.73,110.92,1263.446
26.09.2021,03:32:38,54.8970327,35.0178234,211.74,60.72189,98249.16,-0.28,-2.84,110.86,1268.273
26.09.2021,03:32:38,54.8970268,35.0178499,211.74,60.40258,98252.65,-0.7,-2.69,110.82,1273.132
26.09.2021,03:32:38,54.8970208,35.0178767,211.74,60.85469,98247.7,-1,-2.54,110.52,1277.973
26.09.2021,03:32:39,54.8970148,35.0179034,211.73,60.43084,98252.34,-1.09,-2.88,109.98,1282.71
26.09.2021,03:32:39,54.8970089,35.01793,211.73,59.44466,98263.07,-0.89,-2.68,109.8,1285.13
26.09.2021,03:32:39,54.8970031,35.0179568,211.74,60.33476,98253.37,-0.82,-3.09,109.34,1292.307
26.09.2021,03:32:39,54.8969973,35.0179837,211.74,61.11184,98244.9,-0.4,-3.22,109.39,1294.865
26.09.2021,03:32:39,54.8969915,35.0180106,211.74,60.26977,98254.07,-0.41,-2.82,109.82,1299.959
26.09.2021,03:32:40,54.8969856,35.0180374,211.74,60.50431,98251.54,-0.83,-2.65,110.35,1304.588
26.09.2021,03:32:40,54.8969797,35.0180643,211.76,59.37685,98263.84,-1.06,-3.38,110.78,1309.106
26.09.2021,03:32:40,54.8969738,35.0180912,211.78,60.24152,98254.4,-1.65,-3.75,111.26,1313.381
26.09.2021,03:32:40,54.8969678,35.0181179,211.81,59.69615,98260.34,-1.58,-3.99,111.57,1317.902
26.09.2021,03:32:40,54.8969619,35.0181445,211.84,60.62299,98250.24,-0.74,-3.61,111.92,1322.549
26.09.2021,03:32:41,54.896956,35.0181713,211.82,59.73288,98259.95,-0.98,-3.22,111.93,1326.853
26.09.2021,03:32:41,54.8969499,35.0181981,211.83,59.60573,98261.34,-2.4,-3.56,111.32,1331.126
26.09.2021,03:32:41,54.8969439,35.0182248,211.86,59.56899,98261.73,-2.63,-5.38,110.51,1335.975
26.09.2021,03:32:41,54.896938,35.0182516,211.87,60.13696,98255.52,-1.95,-5.27,109.93,1341.082
26.09.2021,03:32:41,54.8969321,35.0182785,211.89,60.25564,98254.23,-1.52,-4.83,109.61,1346.161
26.09.2021,03:32:42,54.8969263,35.0183056,211.93,59.877,98258.38,-0.93,-4.96,109.63,1350.9
26.09.2021,03:32:42,54.8969205,35.0183328,211.96,59.90243,98258.1,-0.83,-5.56,110.28,1355.252
26.09.2021,03:32:42,54.8969147,35.0183601,212.01,60.76992,98248.64,-0.5,-5.44,110.77,1357.46
26.09.2021,03:32:42,54.8969089,35.0183875,212.05,61.41419,98241.59,-1.23,-5.42,111.67,1362.125
26.09.2021,03:32:42,54.8969029,35.0184151,212.09,60.89991,98247.21,-0.56,-4.47,112.45,1366.816
26.09.2021,03:32:43,54.8968968,35.0184426,212.09,61.11466,98244.86,-1.59,-4,112.58,1371.178
26.09.2021,03:32:43,54.8968906,35.0184701,212.1,59.90525,98258.06,-2.09,-3.15,112.9,1375.458
26.09.2021,03:32:43,54.8968842,35.0184977,212.1,59.26947,98265,-3.23,-3.77,112.53,1379.72
26.09.2021,03:32:43,54.8968779,35.0185252,212.12,60.05219,98256.47,-3.04,-3.93,111.86,1384.607
26.09.2021,03:32:43,54.8968717,35.0185526,212.11,59.96742,98257.38,-3,-2.14,111.1,1389.583
26.09.2021,03:32:44,54.8968656,35.0185799,212.11,59.20448,98265.72,-3.59,-3.29,110.14,1394.196
26.09.2021,03:32:44,54.8968597,35.0186073,212.11,59.56334,98261.78,-1.95,-3.79,109.79,1398.869
26.09.2021,03:32:44,54.896854,35.0186345,212.13,60.86882,98247.55,-0.41,-5.17,110.08,1403.467
26.09.2021,03:32:44,54.8968484,35.018662,212.17,60.23304,98254.48,1.53,-4.11,111.05,1408.158
26.09.2021,03:32:44,54.8968426,35.0186895,212.18,59.71593,98260.13,0.45,-4.02,111.07,1412.318
26.09.2021,03:32:45,54.8968367,35.0187169,212.2,59.08862,98266.95,-2.03,-4.88,109.86,1416.68
26.09.2021,03:32:45,54.8968306,35.0187443,212.24,61.20791,98243.84,-1.72,-5.5,108.96,1421.768
26.09.2021,03:32:45,54.8968246,35.0187716,212.26,61.33789,98242.44,-0.72,-4.81,108.84,1427.456
26.09.2021,03:32:45,54.8968185,35.0187992,212.26,60.68233,98249.59,-0.19,-3.98,109.29,1432.557
26.09.2021,03:32:45,54.8968125,35.0188271,212.28,60.13696,98255.53,-0.99,-4.45,109.48,1434.853
26.09.2021,03:32:46,54.8968064,35.0188552,212.3,60.65689,98249.84,-1.56,-3.83,109.81,1439.497
26.09.2021,03:32:46,54.8968003,35.0188833,212.32,60.77558,98248.58,-1.07,-2.87,110.41,1444.353
26.09.2021,03:32:46,54.8967943,35.0189114,212.31,61.13161,98244.69,0,-2.23,111.5,1448.937
26.09.2021,03:32:46,54.8967883,35.0189394,212.3,61.02989,98245.78,-0.66,-3.2,112.06,1453.302
26.09.2021,03:32:46,54.8967822,35.0189674,212.32,60.40823,98252.58,-2.21,-2.87,111.97,1458.019
26.09.2021,03:32:47,54.8967761,35.0189953,212.31,60.97338,98246.42,-3.82,-2.5,111.82,1462.662
26.09.2021,03:32:47,54.8967698,35.0190229,212.32,60.90556,98247.14,-4.01,-3,111.52,1467.431
26.09.2021,03:32:47,54.8967636,35.0190504,212.32,59.54921,98261.95,-3.85,-2.96,111.31,1472.081
26.09.2021,03:32:47,54.8967576,35.0190778,212.31,60.50996,98251.45,-3.08,-2.77,111.15,1476.678
26.09.2021,03:32:47,54.8967517,35.0191051,212.31,60.20761,98254.77,-2.6,-3.9,111.37,1481.009
26.09.2021,03:32:48,54.8967459,35.0191324,212.32,58.93886,98268.61,-2.38,-4.77,111.51,1485.244
26.09.2021,03:32:48,54.8967401,35.0191598,212.33,60.41671,98252.48,-2.52,-5.23,111.41,1489.72
26.09.2021,03:32:48,54.8967345,35.0191869,212.34,60.4817,98251.77,-2.67,-4.76,111.42,1492.129
26.09.2021,03:32:48,54.8967289,35.0192141,212.38,60.32346,98253.52,-1.63,-4.94,111.43,1496.664
26.09.2021,03:32:48,54.8967233,35.0192415,212.45,61.2616,98243.27,-2.04,-5.73,111.41,1500.97
26.09.2021,03:32:49,54.8967176,35.019269,212.49,60.93382,98246.84,-1.64,-6.12,111.24,1505.352
26.09.2021,03:32:49,54.8967117,35.0192965,212.52,60.32064,98253.53,-1.68,-6.09,111.02,1509.472
26.09.2021,03:32:49,54.8967059,35.019324,212.57,59.86852,98258.45,-1.63,-6.1,110.83,1513.511
26.09.2021,03:32:49,54.8967,35.0193516,212.59,60.71906,98249.19,-1.23,-5.69,110.55,1517.737
26.09.2021,03:32:49,54.8966942,35.0193794,212.62,60.20195,98254.81,-0.53,-4.75,110.37,1522.241
26.09.2021,03:32:50,54.8966884,35.0194073,212.66,60.21326,98254.69,-0.44,-4.58,110.2,1526.275
26.09.2021,03:32:50,54.8966826,35.0194351,212.69,58.55456,98272.8,-0.41,-4.52,109.74,1530.221
26.09.2021,03:32:50,54.8966768,35.0194628,212.72,59.37119,98263.89,-0.72,-4.51,109.04,1534.428
26.09.2021,03:32:50,54.8966709,35.0194907,212.75,60.32346,98253.48,-0.39,-5.01,108.26,1538.714
26.09.2021,03:32:50,54.896665,35.0195185,212.75,59.49553,98262.52,0.09,-4.43,108.03,1543.028
26.09.2021,03:32:51,54.896659,35.0195462,212.75,60.8773,98247.45,0.16,-4.61,108.04,1545.043
26.09.2021,03:32:51,54.8966531,35.0195741,212.8,58.87104,98269.33,0.12,-4.97,108.21,1549.343
26.09.2021,03:32:51,54.8966471,35.0196022,212.84,60.73037,98249.06,0.07,-4.63,108.5,1553.474
26.09.2021,03:32:51,54.896641,35.0196302,212.85,59.60573,98261.31,0.01,-4.55,108.82,1557.742
26.09.2021,03:32:51,54.8966349,35.0196583,212.89,59.37967,98263.79,0.35,-4.4,109.35,1562.078
26.09.2021,03:32:52,54.8966288,35.0196866,212.93,60.34324,98253.27,0.41,-4.33,109.87,1566.409
26.09.2021,03:32:52,54.8966227,35.0197148,212.98,60.17653,98255.09,0.06,-4.25,110.21,1570.707
26.09.2021,03:32:52,54.8966166,35.0197431,213.04,60.32064,98253.52,-0.05,-4.17,110.32,1574.968
26.09.2021,03:32:52,54.8966104,35.0197714,213.09,61.43679,98241.37,-0.43,-4.13,110.21,1579.283
26.09.2021,03:32:52,54.8966043,35.0197997,213.12,60.04371,98256.55,0.13,-4.41,110.1,1583.443
26.09.2021,03:32:53,54.8965982,35.019828,213.15,60.7897,98248.41,0.54,-4.53,109.99,1587.492
26.09.2021,03:32:53,54.8965921,35.0198562,213.19,60.91121,98247.09,0.64,-4.24,109.81,1591.689
26.09.2021,03:32:53,54.8965861,35.0198844,213.2,60.42801,98252.37,0.59,-3.12,109.76,1595.808
26.09.2021,03:32:53,54.89658,35.0199126,213.21,60.9423,98246.74,1.06,-3.55,109.66,1599.743
26.09.2021,03:32:53,54.8965739,35.0199408,213.24,59.79222,98259.29,0.74,-3.67,109.75,1601.828
26.09.2021,03:32:54,54.8965678,35.0199688,213.24,61.27008,98243.18,1.32,-4.03,109.85,1605.917
26.09.2021,03:32:54,54.8965617,35.0199969,213.23,60.13414,98255.57,0.93,-4.21,109.78,1609.97
26.09.2021,03:32:54,54.8965555,35.020025,213.22,60.25282,98254.26,1.22,-4.45,109.95,1614.122
26.09.2021,03:32:54,54.8965494,35.0200531,213.19,60.0635,98256.34,0.07,-4.65,110.12,1618.657
26.09.2021,03:32:54,54.8965433,35.0200812,213.17,60.29803,98253.77,-0.03,-4.87,110.45,1623.138
26.09.2021,03:32:55,54.8965372,35.0201093,213.16,60.15957,98255.29,0.79,-4.52,110.8,1627.442
26.09.2021,03:32:55,54.8965311,35.0201376,213.13,60.59756,98250.49,1.17,-4.25,111.04,1631.904
26.09.2021,03:32:55,54.896525,35.0201661,213.13,60.50431,98251.52,1.17,-4.01,111.09,1636.375
26.09.2021,03:32:55,54.8965188,35.0201946,213.18,60.67385,98249.68,0.42,-3.88,110.98,1640.744
26.09.2021,03:32:55,54.8965127,35.020223,213.19,59.94764,98257.6,0.6,-4.33,110.73,1644.862
26.09.2021,03:32:56,54.8965065,35.0202514,213.2,59.80635,98259.15,0.71,-4.5,110.52,1649.054
26.09.2021,03:32:56,54.8965003,35.0202797,213.21,60.41388,98252.52,0.7,-4.56,110.28,1653.418
26.09.2021,03:32:56,54.8964942,35.020308,213.2,60.01263,98256.9,0.41,-4.95,110.07,1658.026
26.09.2021,03:32:56,54.8964881,35.0203363,213.19,60.70211,98249.37,0.56,-4.26,109.61,1662.647
26.09.2021,03:32:56,54.8964821,35.0203645,213.17,61.01859,98245.91,1.82,-4.52,109.43,1667.394
26.09.2021,03:32:57,54.8964759,35.0203928,213.16,60.84622,98247.79,1.6,-4.11,109.29,1669.826
26.09.2021,03:32:57,54.8964698,35.0204211,213.16,61.23617,98243.54,1.25,-4.13,109.17,1674.6
26.09.2021,03:32:57,54.8964636,35.0204494,213.17,60.30368,98253.71,0.67,-3.97,109.15,1679.189
26.09.2021,03:32:57,54.8964574,35.0204777,213.18,60.54669,98251.08,0.15,-4.19,109.04,1683.502
26.09.2021,03:32:57,54.8964512,35.0205061,213.18,61.20791,98243.86,1.14,-3.03,109.27,1688.046
26.09.2021,03:32:58,54.8964452,35.0205346,213.19,61.34354,98242.38,1.67,-2.76,109.72,1692.646
26.09.2021,03:32:58,54.8964392,35.020563,213.2,60.10588,98255.88,1,-2.52,110,1697.255
26.09.2021,03:32:58,54.896433,35.0205914,213.18,60.42236,98252.41,0.34,-1.89,110.11,1701.942
26.09.2021,03:32:58,54.8964268,35.0206197,213.14,61.36333,98242.15,0.6,-1.63,110.1,1706.546
26.09.2021,03:32:58,54.8964207,35.020648,213.11,60.68798,98249.52,0.13,-2.27,109.85,1711.067
26.09.2021,03:32:59,54.8964146,35.0206761,213.1,60.59756,98250.5,-0.46,-3.03,109.35,1715.895
26.09.2021,03:32:59,54.8964085,35.020704,213.08,61.77871,98237.64,0.18,-2.77,109.33,1720.535
26.09.2021,03:32:59,54.8964024,35.0207319,213.08,60.82361,98248.03,0.75,-2.58,109.71,1724.995
26.09.2021,03:32:59,54.8963963,35.0207597,213.08,60.60603,98250.42,0.68,-2.69,109.99,1729.162
26.09.2021,03:32:59,54.8963902,35.0207874,213.07,59.24686,98265.25,-0.64,-3.38,109.71,1733.465
26.09.2021,03:33:00,54.8963839,35.0208152,213.04,60.21043,98254.73,-1.42,-3.49,109.43,1735.552
26.09.2021,03:33:00,54.8963778,35.0208427,213.05,60.65689,98249.86,-1.13,-4.42,109.41,1739.936
26.09.2021,03:33:00,54.8963717,35.0208703,213.04,59.37685,98263.83,-0.39,-4.93,109.76,1744.687
26.09.2021,03:33:00,54.8963657,35.0208979,213.02,58.64498,98271.81,-0.13,-5.34,110.09,1749.487
26.09.2021,03:33:00,54.8963596,35.0209255,212.99,59.73288,98259.94,0.1,-5.89,110.46,1754.334
26.09.2021,03:33:01,54.8963535,35.0209533,212.98,61.19378,98244,-0.47,-5.52,110.83,1759.066
26.09.2021,03:33:01,54.8963472,35.0209811,212.96,60.2839,98253.92,-1.25,-4.77,110.84,1763.772
26.09.2021,03:33:01,54.8963409,35.0210091,212.95,59.53508,98262.11,-1.92,-5.04,110.52,1768.168
26.09.2021,03:33:01,54.8963347,35.0210371,212.98,60.32911,98253.44,-1.89,-4.41,110.31,1772.414
26.09.2021,03:33:01,54.8963284,35.0210651,212.99,60.11436,98255.78,-1.57,-3.79,110.05,1777.05
26.09.2021,03:33:02,54.8963222,35.0210934,213.01,60.46757,98251.92,-0.9,-3.11,109.87,1781.277
26.09.2021,03:33:02,54.896316,35.0211216,213.01,60.50713,98251.48,-1.4,-3.53,109.55,1785.388
26.09.2021,03:33:02,54.8963099,35.0211497,213.04,61.07228,98245.34,-1.49,-3.41,108.97,1789.438
26.09.2021,03:33:02,54.8963039,35.0211777,213.06,59.90808,98258.03,-1.12,-4.38,108.57,1793.754
26.09.2021,03:33:02,54.8962979,35.0212058,213.08,60.2952,98253.81,-0.81,-4.14,108.32,1795.9
26.09.2021,03:33:03,54.8962919,35.0212338,213.08,60.90556,98247.14,-1.04,-4.65,108.22,1800.301
26.09.2021,03:33:03,54.8962861,35.0212619,213.07,59.38815,98263.7,-0.72,-4.74,108.09,1804.5
26.09.2021,03:33:03,54.8962803,35.0212902,213.07,60.33194,98253.41,-0.6,-4.96,108.37,1809.199
26.09.2021,03:33:03,54.8962743,35.0213185,213.05,61.00729,98246.05,-0.48,-4.42,109,1813.999
26.09.2021,03:33:03,54.8962684,35.0213469,213.03,59.80353,98259.17,-1.08,-4.02,109.41,1818.609
26.09.2021,03:33:04,54.8962624,35.0213753,213.03,60.84622,98247.8,-1.05,-3.78,109.63,1822.998
26.09.2021,03:33:04,54.8962563,35.0214037,213.01,60.65972,98249.83,-0.57,-3.62,109.93,1827.27
26.09.2021,03:33:04,54.8962502,35.0214321,213.03,59.47857,98262.7,-0.69,-3.69,109.92,1831.558
26.09.2021,03:33:04,54.8962441,35.0214604,213.02,59.83461,98258.84,-1,-3.22,109.83,1835.811
26.09.2021,03:33:04,54.8962379,35.0214886,213.02,60.75862,98248.75,-1.37,-3.46,109.51,1840.546
26.09.2021,03:33:05,54.8962317,35.0215168,213.02,61.34354,98242.38,-0.97,-3.19,109.11,1845.381
26.09.2021,03:33:05,54.8962256,35.0215451,213,60.80666,98248.23,-0.92,-3.28,109.08,1849.962
26.09.2021,03:33:05,54.8962195,35.0215731,212.99,59.54921,98261.94,-1.17,-3.92,108.88,1854.614
26.09.2021,03:33:05,54.8962134,35.0216012,212.98,61.37463,98242.03,-0.81,-3.7,108.64,1859.423
26.09.2021,03:33:05,54.8962073,35.0216293,212.94,61.71937,98238.26,-0.86,-2.93,108.68,1861.797
26.09.2021,03:33:06,54.8962013,35.0216574,212.93,60.80383,98248.27,-0.58,-3.42,108.77,1866.222
26.09.2021,03:33:06,54.8961953,35.0216855,212.9,60.63429,98250.12,-0.42,-3.03,108.95,1870.621
26.09.2021,03:33:06,54.8961894,35.0217136,212.88,60.58343,98250.66,-0.36,-3.12,109.14,1875.038
26.09.2021,03:33:06,54.8961836,35.0217418,212.86,59.92221,98257.88,-0.74,-3.18,109.22,1879.671
26.09.2021,03:33:06,54.8961779,35.02177,212.9,61.27855,98243.07,-1.07,-3.3,109.2,1884.338
26.09.2021,03:33:07,54.896172,35.021798,212.89,61.18813,98244.07,-0.9,-2.68,109.32,1889.383
26.09.2021,03:33:07,54.8961661,35.0218259,212.89,60.62864,98250.16,-1.02,-3.31,109.37,1894.13
26.09.2021,03:33:07,54.89616,35.0218538,212.86,60.1963,98254.88,-1.64,-3.34,109.3,1898.881
26.09.2021,03:33:07,54.8961539,35.0218817,212.85,60.4817,98251.77,-1.42,-3.02,109.11,1903.726
26.09.2021,03:33:07,54.8961478,35.0219097,212.85,60.40258,98252.65,-0.59,-3,109.05,1908.551
26.09.2021,03:33:08,54.8961418,35.0219377,212.84,61.12314,98244.77,-0.36,-2.85,109.04,1913.348
26.09.2021,03:33:08,54.8961358,35.0219658,212.84,60.21326,98254.71,0.14,-3.24,109.05,1918.108
26.09.2021,03:33:08,54.8961298,35.0219938,212.85,60.29803,98253.76,-0.23,-3.18,109.1,1920.448
26.09.2021,03:33:08,54.8961236,35.0220217,212.84,60.43084,98252.34,-0.34,-3.77,108.98,1925.013
26.09.2021,03:33:08,54.8961175,35.0220496,212.84,59.56334,98261.8,-0.3,-3.11,109.04,1929.583
26.09.2021,03:33:09,54.8961115,35.0220775,212.83,60.51844,98251.37,-0.34,-3.28,109.05,1933.975
26.09.2021,03:33:09,54.8961055,35.0221053,212.82,60.1737,98255.13,0.1,-3.59,109.13,1937.835
26.09.2021,03:33:09,54.8960994,35.0221332,212.83,59.23556,98265.37,0.39,-4.44,109.48,1941.981
26.09.2021,03:33:09,54.8960934,35.0221609,212.82,60.55799,98250.93,0.48,-4.43,109.93,1946.526
26.09.2021,03:33:09,54.8960875,35.0221887,212.84,58.91908,98268.8,0.12,-4.49,110.27,1951.086
26.09.2021,03:33:10,54.8960814,35.0222165,212.82,59.62833,98261.09,-0.35,-4.56,110.65,1955.917
26.09.2021,03:33:10,54.8960754,35.0222443,212.8,59.50965,98262.38,-0.53,-4.7,110.67,1960.711
26.09.2021,03:33:10,54.8960693,35.0222721,212.78,60.52691,98251.29,-0.28,-5.18,110.78,1965.445
26.09.2021,03:33:10,54.8960631,35.0223,212.74,61.44244,98241.3,0.12,-5.12,111.03,1970.376
26.09.2021,03:33:10,54.8960569,35.022328,212.74,60.71624,98249.23,0.61,-4.15,111.27,1975.375
26.09.2021,03:33:11,54.8960508,35.022356,212.72,60.23304,98254.48,0.3,-4.11,111.34,1979.967
26.09.2021,03:33:11,54.8960449,35.022384,212.74,60.22173,98254.61,-0.38,-4.16,111.19,1984.28
26.09.2021,03:33:11,54.8960388,35.0224121,212.74,58.59695,98272.32,-0.1,-4.35,111.13,1986.459
26.09.2021,03:33:11,54.8960327,35.0224402,212.74,59.84591,98258.72,0.25,-4.35,111.13,1990.934
26.09.2021,03:33:11,54.8960265,35.0224682,212.73,59.77527,98259.48,0.42,-3.81,111.1,1995.583
26.09.2021,03:33:12,54.8960204,35.0224961,212.74,59.06602,98267.22,0.36,-3.51,111.05,2000.222
26.09.2021,03:33:12,54.8960144,35.0225241,212.76,59.22425,98265.48,-0.08,-3.26,110.9,2004.588
26.09.2021,03:33:12,54.8960082,35.0225521,212.79,59.4164,98263.39,0.02,-3.42,110.61,2009.061
26.09.2021,03:33:12,54.8960021,35.0225801,212.83,60.33759,98253.34,-0.03,-4.07,110.34,2013.453
26.09.2021,03:33:12,54.8959961,35.0226082,212.83,59.69333,98260.36,-0.11,-4.64,110.03,2017.844
26.09.2021,03:33:13,54.8959899,35.0226362,212.8,60.89426,98247.27,0.61,-4.08,109.88,2022.174
26.09.2021,03:33:13,54.8959838,35.0226643,212.82,59.73288,98259.95,0.54,-3.72,109.9,2026.418
26.09.2021,03:33:13,54.8959778,35.0226926,212.87,60.2613,98254.19,0.7,-3.68,110.04,2030.625
26.09.2021,03:33:13,54.8959717,35.0227209,212.89,59.51813,98262.27,0.39,-3.86,110.17,2034.771
26.09.2021,03:33:13,54.8959657,35.022749,212.92,60.91121,98247.08,0.04,-3.95,110.17,2038.955
26.09.2021,03:33:14,54.8959596,35.0227771,212.92,59.14513,98266.34,-0.25,-3.75,110.17,2043.037
26.09.2021,03:33:14,54.8959535,35.0228052,212.92,60.86882,98247.55,-0.41,-3.18,109.85,2047.094
26.09.2021,03:33:14,54.8959474,35.0228331,212.91,59.00385,98267.89,-0.49,-2.96,109.61,2049.111
26.09.2021,03:33:14,54.8959414,35.0228611,212.92,59.97872,98257.25,0.54,-3.02,109.31,2053.27
26.09.2021,03:33:14,54.8959355,35.0228892,212.92,60.73884,98248.97,-0.31,-4.17,109.12,2057.476
26.09.2021,03:33:15,54.8959296,35.0229172,212.94,59.85439,98258.61,0.44,-5.26,109.01,2061.651
26.09.2021,03:33:15,54.8959239,35.0229452,212.96,59.30338,98264.63,1.34,-6.05,109.17,2065.93
26.09.2021,03:33:15,54.895918,35.0229733,212.98,60.70776,98249.31,1.45,-5.49,109.79,2070.118
26.09.2021,03:33:15,54.895912,35.0230015,213.01,59.91938,98257.89,1.63,-4.89,110.38,2074.078
26.09.2021,03:33:15,54.895906,35.0230298,213.04,60.39975,98252.66,1.56,-4.59,110.92,2078.106
26.09.2021,03:33:16,54.8959,35.0230582,213.05,58.93038,98268.69,1.32,-4.19,111.26,2082.263
26.09.2021,03:33:16,54.8958939,35.0230868,213.05,60.13696,98255.55,1.31,-3.47,111.59,2086.33
26.09.2021,03:33:16,54.8958878,35.0231154,213.06,59.6905,98260.41,0.86,-3.46,111.74,2090.606
26.09.2021,03:33:16,54.8958816,35.0231439,213.04,59.01798,98267.73,0.26,-3.2,111.65,2094.855
26.09.2021,03:33:16,54.8958755,35.0231724,213.06,60.60603,98250.41,0.75,-3.84,111.61,2099.047
26.09.2021,03:33:17,54.8958695,35.0232008,213.08,61.12597,98244.75,0.19,-4.08,111.52,2103.36
26.09.2021,03:33:17,54.8958636,35.0232291,213.1,60.74449,98248.89,0.38,-4.38,111.43,2105.496
26.09.2021,03:33:17,54.8958576,35.0232575,213.12,60.65689,98249.88,0.53,-5.02,111.46,2109.45
26.09.2021,03:33:17,54.8958516,35.023286,213.13,60.14544,98255.45,1.25,-4.57,111.58,2113.414
26.09.2021,03:33:17,54.8958455,35.0233147,213.12,60.59473,98250.53,1.19,-4.33,111.64,2117.373
26.09.2021,03:33:18,54.8958396,35.0233435,213.14,59.84874,98258.67,2.02,-1.48,111.73,2121.547
26.09.2021,03:33:18,54.8958335,35.0233721,213.12,60.70493,98249.34,4.25,2.31,112.35,2125.864
26.09.2021,03:33:18,54.8958274,35.0234003,213.06,59.49835,98262.48,5.87,5.29,113.7,2130.296
26.09.2021,03:33:18,54.8958212,35.0234279,213.04,60.49583,98251.61,4.67,4.47,115.22,2134.943
26.09.2021,03:33:18,54.895815,35.0234546,213.02,60.90273,98247.19,4.6,0.85,116.84,2140.152
26.09.2021,03:33:19,54.8958088,35.0234804,213.01,60.95642,98246.61,9.01,-3.73,118.9,2145.213
26.09.2021,03:33:19,54.8958025,35.0235054,213.01,61.59786,98239.59,11.08,-4.62,120.91,2150.213
26.09.2021,03:33:19,54.8957959,35.0235301,213.02,60.82079,98248.06,11.73,-3.17,122.68,2154.949
26.09.2021,03:33:19,54.8957887,35.0235545,213,60.82079,98248.08,11.52,-0.76,124.08,2159.4
26.09.2021,03:33:19,54.8957812,35.0235785,213,61.39724,98241.8,11.9,1.82,125.4,2163.632
26.09.2021,03:33:20,54.8957732,35.0236019,212.98,60.30933,98253.66,12.37,3.02,126.94,2167.941
26.09.2021,03:33:20,54.8957647,35.0236244,212.97,61.52156,98240.42,11.92,3.43,127.75,2170.127
26.09.2021,03:33:20,54.8957561,35.0236458,212.93,61.72502,98238.22,11.74,3.62,129.3,2174.697
26.09.2021,03:33:20,54.8957472,35.0236662,212.9,62.12062,98233.89,10.85,3.14,131.04,2179.395
26.09.2021,03:33:20,54.8957382,35.0236852,212.88,61.82957,98237.08,11.16,2.33,133.03,2183.963
26.09.2021,03:33:21,54.8957289,35.0237032,212.86,59.95329,98257.53,11.04,2.46,135.41,2188.402
26.09.2021,03:33:21,54.8957195,35.0237203,212.83,61.62046,98239.34,12.38,1.97,137.64,2192.437
26.09.2021,03:33:21,54.8957099,35.0237363,212.77,60.55799,98250.94,11.74,0.32,140.03,2196.756
26.09.2021,03:33:21,54.8957001,35.0237512,212.71,61.79284,98237.47,10.58,-1.32,142.4,2201.262
26.09.2021,03:33:21,54.8956901,35.0237652,212.66,60.64842,98249.95,10.03,-2.13,144.47,2205.806
26.09.2021,03:33:22,54.8956798,35.0237783,212.61,61.79566,98237.44,9.88,-2.19,146.44,2210.472
26.09.2021,03:33:22,54.8956693,35.0237907,212.56,60.36584,98253.05,9.89,-2.11,148.25,2215.017
26.09.2021,03:33:22,54.8956584,35.0238024,212.47,60.65689,98249.84,8.62,-2.14,149.77,2219.542
26.09.2021,03:33:22,54.8956474,35.0238136,212.42,60.73884,98248.97,8.86,-1.74,151.14,2224.113
26.09.2021,03:33:22,54.8956361,35.0238242,212.38,60.93099,98246.86,8.84,-1.51,152.07,2228.745
26.09.2021,03:33:23,54.8956247,35.0238341,212.32,61.04967,98245.58,8.76,-1.08,152.52,2231.047
26.09.2021,03:33:23,54.8956131,35.0238434,212.26,60.62581,98250.2,8.28,-1.2,153.38,2235.484
26.09.2021,03:33:23,54.8956014,35.0238521,212.2,61.17683,98244.2,8.15,-1.16,154.1,2239.902
26.09.2021,03:33:23,54.8955896,35.0238603,212.17,61.2729,98243.15,8.3,-0.74,155.1,2244.391
26.09.2021,03:33:23,54.8955777,35.0238678,212.15,61.53004,98240.34,8.04,-0.53,156.39,2248.835
26.09.2021,03:33:24,54.8955661,35.0238746,212.14,60.60603,98250.43,7.81,-1.03,157.85,2253.253
26.09.2021,03:33:24,54.8955545,35.0238809,212.11,61.22486,98243.68,7.05,-1.34,159.45,2257.653
26.09.2021,03:33:24,54.8955427,35.0238869,212.13,60.3715,98252.97,6.12,-1.93,160.9,2261.946
26.09.2021,03:33:24,54.8955308,35.0238924,212.1,60.64559,98249.99,5.97,-1.91,162.32,2265.91
26.09.2021,03:33:24,54.8955189,35.0238974,212.05,60.00981,98256.93,6.43,-2.03,163.46,2270.09
26.09.2021,03:33:25,54.8955069,35.0239022,212.04,59.85157,98258.65,5.72,-1.35,164.4,2274.301
26.09.2021,03:33:25,54.8954949,35.0239066,212,59.45879,98262.92,5.99,-0.69,165.4,2278.24
26.09.2021,03:33:25,54.8954831,35.0239107,211.98,59.57182,98261.7,5.65,-1.53,166.25,2282.095
26.09.2021,03:33:25,54.8954713,35.0239145,211.94,59.67072,98260.62,4.84,-1.86,167.16,2285.948
26.09.2021,03:33:25,54.8954596,35.0239182,211.94,59.97307,98257.31,4.92,-2.76,168.12,2289.969
26.09.2021,03:33:26,54.8954477,35.0239216,211.93,59.15644,98266.23,4.52,-2.98,168.66,2292.038
26.09.2021,03:33:26,54.8954358,35.0239247,211.93,59.25816,98265.12,4.33,-3.88,169.4,2296.05
26.09.2021,03:33:26,54.895424,35.0239277,211.92,60.28107,98253.95,4.18,-3.55,170.01,2300.115
26.09.2021,03:33:26,54.8954121,35.0239304,211.94,58.89082,98269.12,3.57,-4.06,171.01,2303.86
26.09.2021,03:33:26,54.8954002,35.023933,211.95,59.51813,98262.29,4.01,-4.65,171.83,2307.764
26.09.2021,03:33:27,54.8953883,35.0239352,211.94,59.49835,98262.5,3.74,-5.59,172.2,2311.78
26.09.2021,03:33:27,54.8953765,35.0239374,211.99,59.72158,98260.05,3.73,-5.55,172.32,2315.775
26.09.2021,03:33:27,54.8953645,35.0239395,212.01,59.84874,98258.66,3.95,-5.67,172.29,2319.732
26.09.2021,03:33:27,54.8953524,35.0239417,212.04,59.47857,98262.72,3.82,-4.97,172.26,2323.733
26.09.2021,03:33:27,54.8953402,35.0239437,212.07,60.15392,98255.34,4.07,-4.08,172.13,2327.873
26.09.2021,03:33:28,54.8953277,35.0239457,212.12,60.44214,98252.21,4.07,-3.23,172.32,2331.873
26.09.2021,03:33:28,54.8953154,35.0239476,212.17,59.86852,98258.47,4.13,-3.08,172.46,2335.726
26.09.2021,03:33:28,54.8953032,35.0239494,212.22,60.31781,98253.57,4.7,-2.96,172.74,2339.779
26.09.2021,03:33:28,54.8952908,35.0239511,212.24,60.98468,98246.27,4.52,-2.98,172.95,2341.987
26.09.2021,03:33:28,54.8952784,35.0239527,212.25,60.29238,98253.85,4.45,-2.53,173.6,2348.144
26.09.2021,03:33:29,54.8952659,35.0239542,212.28,60.46192,98251.99,4.5,-2.25,173.8,2350.118
26.09.2021,03:33:29,54.8952535,35.0239557,212.33,60.58343,98250.66,4.34,-2.11,174.24,2354.356
26.09.2021,03:33:29,54.8952409,35.0239569,212.35,60.04371,98256.54,3.81,-1.71,174.77,2358.461
26.09.2021,03:33:29,54.8952285,35.023958,212.35,60.46475,98251.95,4.14,-1.46,175.18,2362.507
26.09.2021,03:33:29,54.8952162,35.023959,212.36,61.28703,98242.99,3.74,-2.57,175.48,2366.686
26.09.2021,03:33:30,54.895204,35.0239599,212.38,61.04402,98245.63,2.65,-2.95,175.83,2370.954
26.09.2021,03:33:30,54.8951919,35.0239607,212.4,60.84339,98247.81,2.42,-2.85,176.24,2375.323
26.09.2021,03:33:30,54.8951798,35.0239615,212.44,60.41954,98252.46,2.47,-2.28,176.69,2379.77
26.09.2021,03:33:30,54.8951677,35.0239622,212.46,61.11184,98244.89,3.09,-2.68,176.91,2384.139
26.09.2021,03:33:30,54.8951556,35.023963,212.48,61.52722,98240.36,3.02,-2.37,176.71,2388.284
26.09.2021,03:33:31,54.8951435,35.0239637,212.48,61.15705,98244.39,3.31,-2.57,176.4,2392.541
26.09.2021,03:33:31,54.8951313,35.0239644,212.46,60.94512,98246.72,3.84,-2.18,176.44,2397.038
26.09.2021,03:33:31,54.8951191,35.0239651,212.46,61.19096,98244.05,4.67,-2.01,176.7,2401.618
26.09.2021,03:33:31,54.8951069,35.0239656,212.41,61.82109,98237.16,4.51,-2.14,176.78,2403.852
26.09.2021,03:33:31,54.8950947,35.0239659,212.36,61.48483,98240.83,5,-1.86,177.02,2408.533
26.09.2021,03:33:32,54.8950826,35.0239664,212.32,60.93382,98246.83,4.79,-1.58,177.4,2413.049
26.09.2021,03:33:32,54.8950706,35.0239668,212.3,60.77275,98248.61,4.4,-1.46,177.8,2417.677
26.09.2021,03:33:32,54.8950585,35.0239669,212.25,60.90556,98247.16,4.34,-0.92,178.11,2422.317
26.09.2021,03:33:32,54.8950464,35.023967,212.21,61.2729,98243.14,3.88,-0.71,178.11,2426.966
26.09.2021,03:33:32,54.8950342,35.023967,212.15,60.30085,98253.75,3.95,-0.92,177.98,2431.148
26.09.2021,03:33:33,54.8950223,35.023967,212.13,60.88295,98247.4,4.53,-1.83,177.91,2435.32
26.09.2021,03:33:33,54.8950104,35.023967,212.09,61.20791,98243.86,4.35,-2.65,177.64,2439.808
26.09.2021,03:33:33,54.8949987,35.0239668,212.09,60.6795,98249.62,3.98,-2.03,177.51,2444.33
26.09.2021,03:33:33,54.8949868,35.0239666,212.04,59.49553,98262.53,4.71,-1.65,177.6,2448.339
26.09.2021,03:33:33,54.8949749,35.0239665,212.01,59.93351,98257.74,4.54,-2.38,177.86,2452.108
26.09.2021,03:33:34,54.894963,35.0239662,211.96,59.51248,98262.35,3.75,-3.08,178.14,2456.168
26.09.2021,03:33:34,54.8949511,35.0239658,211.92,59.92786,98257.82,3.92,-3.49,178.19,2458.143
26.09.2021,03:33:34,54.8949394,35.0239654,211.91,59.85157,98258.65,3.82,-3.48,178.53,2464.11
26.09.2021,03:33:34,54.8949276,35.023965,211.92,60.00133,98257.02,3.6,-4.18,178.74,2466.144
26.09.2021,03:33:34,54.8949157,35.0239645,211.92,60.10588,98255.87,3.3,-3.71,178.77,2470.19
26.09.2021,03:33:35,54.8949038,35.023964,211.9,59.91373,98257.95,3.69,-5,178.58,2473.851
26.09.2021,03:33:35,54.8948919,35.0239633,211.91,60.13979,98255.51,3.92,-5.84,178.46,2477.993
26.09.2021,03:33:35,54.8948799,35.0239627,211.92,59.67637,98260.57,3.16,-5.41,178.57,2482.555
26.09.2021,03:33:35,54.8948678,35.0239621,211.91,60.09175,98256.02,2.46,-3.71,178.59,2486.916
26.09.2021,03:33:35,54.8948558,35.0239616,211.94,60.0748,98256.22,3.01,-2.97,178.61,2490.681
26.09.2021,03:33:36,54.8948436,35.023961,211.94,59.24686,98265.23,3.25,-2.91,178.85,2494.438
26.09.2021,03:33:36,54.8948316,35.0239605,211.98,59.21013,98265.63,3.52,-3.7,179.26,2498.244
26.09.2021,03:33:36,54.8948197,35.02396,212,59.49553,98262.54,2.74,-4.56,179.57,2502.406
26.09.2021,03:33:36,54.8948079,35.0239595,212.01,59.9109,98258.01,2.48,-5.25,179.86,2506.655
26.09.2021,03:33:36,54.8947959,35.0239593,212.05,60.05784,98256.41,2.7,-5.15,179.96,2511.111
26.09.2021,03:33:37,54.8947839,35.0239591,212.06,59.58312,98261.56,3,-4.71,180.17,2515.469
26.09.2021,03:33:37,54.8947719,35.0239588,212.1,59.47857,98262.72,2.94,-4.76,180.2,2517.526
26.09.2021,03:33:37,54.89476,35.0239585,212.12,59.67637,98260.56,3.17,-5.08,180.19,2521.652
26.09.2021,03:33:37,54.894748,35.0239583,212.16,60.2726,98254.05,3.75,-5.55,180.25,2525.804
26.09.2021,03:33:37,54.8947361,35.0239581,212.22,59.91656,98257.92,3.33,-5.58,180.36,2529.921
26.09.2021,03:33:38,54.894724,35.0239578,212.22,60.33476,98253.38,3.6,-4.92,180.21,2534.105
26.09.2021,03:33:38,54.894712,35.0239574,212.25,60.74732,98248.88,3.74,-4.04,179.92,2538.248
26.09.2021,03:33:38,54.8947,35.023957,212.25,59.8657,98258.5,3.69,-4.6,179.66,2542.156
26.09.2021,03:33:38,54.8946878,35.0239566,212.23,60.39693,98252.69,4.28,-4.11,179.62,2546.557
26.09.2021,03:33:38,54.8946757,35.0239563,212.22,59.61138,98261.27,4.26,-3.7,179.57,2550.74
26.09.2021,03:33:39,54.8946637,35.0239559,212.2,60.47605,98251.83,4.4,-3.49,179.83,2554.9
26.09.2021,03:33:39,54.8946518,35.0239556,212.17,60.19065,98254.94,3.85,-2.71,180.12,2558.828
26.09.2021,03:33:39,54.8946399,35.0239551,212.14,59.88265,98258.3,3.63,-3.92,180.37,2562.528
26.09.2021,03:33:39,54.8946282,35.0239548,212.16,59.63681,98260.98,3.04,-4.08,180.5,2564.438
26.09.2021,03:33:39,54.8946164,35.0239544,212.17,60.30651,98253.69,3.05,-5.04,180.53,2567.983
26.09.2021,03:33:40,54.8946046,35.023954,212.17,60.82927,98247.98,3.91,-5.83,180.86,2572.067
26.09.2021,03:33:40,54.8945928,35.0239537,212.18,61.05532,98245.5,3.45,-5.53,180.98,2576.286
26.09.2021,03:33:40,54.8945809,35.0239532,212.18,59.877,98258.38,3.26,-6.25,180.4,2580.368
26.09.2021,03:33:40,54.8945688,35.0239527,212.16,60.93099,98246.86,3.1,-5.65,179.6,2584.679
26.09.2021,03:33:40,54.8945566,35.0239522,212.15,61.26725,98243.19,2.78,-5.13,178.85,2588.955
26.09.2021,03:33:41,54.8945444,35.0239518,212.13,61.06945,98245.38,3.21,-3.8,178.38,2593.206
26.09.2021,03:33:41,54.8945321,35.0239514,212.08,60.60038,98250.48,3.89,-2.38,178.05,2596.874
26.09.2021,03:33:41,54.8945197,35.0239511,211.99,60.32629,98253.45,4.06,-3.05,178.25,2600.425
26.09.2021,03:33:41,54.8945075,35.023951,211.97,60.36302,98253.06,4.89,-3.88,178.65,2604.283
26.09.2021,03:33:41,54.8944952,35.0239508,211.94,60.65689,98249.86,4.92,-4.23,178.96,2608.272
26.09.2021,03:33:42,54.8944831,35.0239507,211.91,60.26977,98254.09,4.96,-4.01,179.44,2612.552
26.09.2021,03:33:42,54.8944712,35.0239504,211.85,60.41671,98252.48,4.92,-3.89,179.64,2617.03
26.09.2021,03:33:42,54.8944592,35.0239501,211.79,60.09458,98255.98,4.91,-4.08,179.64,2619.238
26.09.2021,03:33:42,54.8944472,35.0239496,211.73,60.86035,98247.64,4.7,-4.77,179.68,2623.642
26.09.2021,03:33:42,54.8944352,35.0239493,211.69,60.24717,98254.34,3.78,-4.98,179.89,2628.54
26.09.2021,03:33:43,54.8944232,35.0239488,211.66,60.89991,98247.22,4.24,-4.39,179.9,2633.139
26.09.2021,03:33:43,54.8944111,35.0239481,211.6,60.17935,98255.06,4.35,-5.13,180.09,2637.708
26.09.2021,03:33:43,54.894399,35.0239477,211.61,60.5693,98250.83,4.44,-4.76,180.36,2642.157
26.09.2021,03:33:43,54.8943867,35.0239472,211.58,61.18531,98244.09,4.93,-4.06,180.61,2646.511
26.09.2021,03:33:43,54.8943744,35.0239467,211.53,60.42236,98252.42,4.95,-3.26,180.61,2651.052
26.09.2021,03:33:44,54.8943621,35.023946,211.47,60.40258,98252.64,4.38,-3.18,180.67,2655.492
26.09.2021,03:33:44,54.8943499,35.0239453,211.41,60.70211,98249.38,4.41,-3.33,180.47,2659.855
26.09.2021,03:33:44,54.8943377,35.0239448,211.36,60.73602,98249,3.29,-3.54,180.06,2663.995
26.09.2021,03:33:44,54.8943255,35.0239441,211.32,61.11749,98244.84,3.49,-3.89,179.75,2668.461
26.09.2021,03:33:44,54.8943133,35.0239433,211.26,60.04654,98256.52,2.91,-3.74,179.39,2673.088
26.09.2021,03:33:45,54.8943011,35.0239426,211.18,60.60603,98250.42,3.07,-3.26,179.33,2675.292
26.09.2021,03:33:45,54.8942888,35.0239422,211.12,60.69363,98249.45,4.06,-2.42,179.51,2679.78
26.09.2021,03:33:45,54.8942765,35.0239417,211.07,60.90556,98247.14,3.81,-1.4,179.75,2684.212
26.09.2021,03:33:45,54.8942644,35.0239412,211.02,60.60038,98250.48,4.32,-1.89,180.03,2688.433
26.09.2021,03:33:45,54.8942523,35.023941,210.96,60.29803,98253.77,4.89,-1.48,180.34,2692.732
26.09.2021,03:33:46,54.8942404,35.0239406,210.91,60.09175,98256.03,5.12,-1.56,180.7,2696.948
26.09.2021,03:33:46,54.8942284,35.0239399,210.85,60.6908,98249.5,4.1,-2.67,181.21,2701.487
26.09.2021,03:33:46,54.8942164,35.0239393,210.82,59.32315,98264.41,3.36,-3.49,181.56,2705.715
26.09.2021,03:33:46,54.8942047,35.0239388,210.84,59.51248,98262.34,3.22,-4.06,181.62,2709.862
26.09.2021,03:33:46,54.8941929,35.0239383,210.85,60.26977,98254.09,3.42,-4.29,181.46,2714.258
26.09.2021,03:33:47,54.894181,35.0239377,210.86,59.85157,98258.64,3.27,-3.72,181.47,2718.75
26.09.2021,03:33:47,54.894169,35.023937,210.84,60.13979,98255.5,3.03,-3.64,181.26,2723.103
26.09.2021,03:33:47,54.8941569,35.0239362,210.83,60.34324,98253.28,2.98,-3.89,181.14,2727.348
26.09.2021,03:33:47,54.8941448,35.0239353,210.84,59.92503,98257.83,3.02,-3.96,180.97,2729.436
26.09.2021,03:33:47,54.8941326,35.0239345,210.86,59.86852,98258.45,3.41,-4.1,180.66,2733.686
26.09.2021,03:33:48,54.8941206,35.0239337,210.87,60.08327,98256.13,2.97,-4.6,180.4,2738.017
26.09.2021,03:33:48,54.8941084,35.023933,210.89,60.2613,98254.17,2.77,-4.14,180.16,2742.498
26.09.2021,03:33:48,54.8940962,35.0239322,210.9,60.866,98247.58,2.89,-3.81,180.09,2747.053
26.09.2021,03:33:48,54.894084,35.0239315,210.91,61.46505,98241.06,2.94,-3.49,180.3,2751.813
26.09.2021,03:33:48,54.8940718,35.0239309,210.94,60.30651,98253.67,2.6,-3.51,180.63,2756.687
26.09.2021,03:33:49,54.8940595,35.0239304,210.94,60.66537,98249.77,2.84,-3.31,180.8,2761.344
26.09.2021,03:33:49,54.8940474,35.02393,210.99,59.88548,98258.27,3.94,-3.16,180.9,2765.963
26.09.2021,03:33:49,54.8940352,35.0239297,211.03,60.69928,98249.39,4.46,-3.03,180.98,2770.797
26.09.2021,03:33:49,54.8940229,35.0239295,211.06,60.02393,98256.78,4.33,-2.83,180.85,2775.611
26.09.2021,03:33:49,54.8940105,35.0239291,211.04,60.41388,98252.5,4.12,-3,180.57,2780.452
26.09.2021,03:33:50,54.8939982,35.0239288,211.03,60.19065,98254.94,4.23,-3.12,180.33,2785.343
26.09.2021,03:33:50,54.8939858,35.0239286,211.03,60.0635,98256.34,4.44,-3.05,180.22,2787.793
26.09.2021,03:33:50,54.8939733,35.0239285,211.05,59.87982,98258.34,5.06,-2.52,180.03,2792.581
26.09.2021,03:33:50,54.893961,35.0239284,211.11,60.6682,98249.73,5.13,-2.43,179.79,2797.493
26.09.2021,03:33:50,54.8939487,35.023928,211.11,60.52691,98251.27,5.08,-2.09,179.57,2802.65
26.09.2021,03:33:51,54.8939365,35.0239275,211.11,61.29268,98242.94,5.21,-1.71,179.41,2807.564
26.09.2021,03:33:51,54.8939243,35.023927,211.15,60.51844,98251.36,4.83,-2.31,179.19,2812.291
26.09.2021,03:33:51,54.8939121,35.0239263,211.15,60.8773,98247.47,5.15,-3.08,179.24,2817.024
26.09.2021,03:33:51,54.8939001,35.0239256,211.19,60.3715,98252.97,5.05,-3.08,179.3,2821.998
26.09.2021,03:33:51,54.8938881,35.0239249,211.19,61.19661,98243.97,4.72,-3.26,179.32,2826.904
26.09.2021,03:33:52,54.8938761,35.0239241,211.2,60.93382,98246.83,5.03,-3.31,179.25,2831.829
26.09.2021,03:33:52,54.893864,35.0239232,211.17,61.3718,98242.06,4.9,-3.23,179.36,2836.789
26.09.2021,03:33:52,54.893852,35.0239223,211.16,60.22739,98254.53,4.38,-3.22,179.5,2841.691
26.09.2021,03:33:52,54.8938399,35.0239214,211.13,61.20791,98243.84,4.75,-3.28,179.73,2846.411
26.09.2021,03:33:52,54.8938279,35.0239207,211.13,61.29268,98242.92,4.42,-3.26,180.01,2851.352
26.09.2021,03:33:53,54.8938158,35.02392,211.16,60.19348,98254.91,4.31,-2.5,180.3,2856.163
26.09.2021,03:33:53,54.8938036,35.0239192,211.15,59.88265,98258.3,4.2,-2.59,180.39,2858.465
26.09.2021,03:33:53,54.8937915,35.0239184,211.2,60.33476,98253.36,4.53,-2.73,180.5,2862.965
26.09.2021,03:33:53,54.8937793,35.0239177,211.21,60.58343,98250.66,4.63,-2.5,180.57,2867.643
26.09.2021,03:33:53,54.8937671,35.023917,211.22,60.9762,98246.38,4.79,-1.88,180.71,2872.645
26.09.2021,03:33:54,54.8937549,35.0239162,211.21,59.94764,98257.59,4.39,-2.31,180.83,2877.529
26.09.2021,03:33:54,54.8937427,35.0239154,211.23,60.31498,98253.58,4.38,-2.99,180.91,2882.18
26.09.2021,03:33:54,54.8937304,35.0239146,211.24,60.02676,98256.72,4.56,-3.18,180.84,2886.937
26.09.2021,03:33:54,54.8937182,35.0239138,211.27,60.73319,98249.03,4.28,-2.99,180.66,2891.728
26.09.2021,03:33:54,54.893706,35.023913,211.28,60.12566,98255.67,4.6,-3.21,180.71,2896.346
26.09.2021,03:33:55,54.8936939,35.0239124,211.29,60.75862,98248.73,4.89,-3.24,180.81,2900.977
26.09.2021,03:33:55,54.8936818,35.0239117,211.3,60.16522,98255.22,4.47,-2.72,180.81,2905.792
26.09.2021,03:33:55,54.8936697,35.023911,211.33,61.09206,98245.11,4.45,-2.64,180.54,2910.53
26.09.2021,03:33:55,54.8936577,35.0239101,211.34,61.17683,98244.19,4.31,-2.72,180.36,2915.325
26.09.2021,03:33:55,54.8936456,35.0239094,211.34,60.8773,98247.47,4.38,-2.64,180.33,2917.698
26.09.2021,03:33:56,54.8936335,35.0239086,211.33,60.76145,98248.72,4.1,-2.72,180.57,2922.636
26.09.2021,03:33:56,54.8936213,35.0239078,211.33,60.63147,98250.14,4.03,-2.15,180.84,2927.708
26.09.2021,03:33:56,54.8936091,35.023907,211.34,61.02989,98245.8,4.25,-2.42,180.81,2932.734
26.09.2021,03:33:56,54.893597,35.0239062,211.34,59.9985,98257.05,3.93,-2.21,180.79,2937.777
